location_id,osm_type,osm_id,btcmap_url,name,category,street,housenumber,postcode,city,lat,lon,website,opening_hours,bitcoin_payment_status,status_note_public,last_verified_at,verified_by_count,verification_confidence,bounty_base_sats,bounty_critical_sats,bounty_new_entry_sats,eligible_now,last_check_id,last_updated_at,source_last_update,source_last_update_tag,cooldown_until,cooldown_days_left,eligible_for_check
DE-BE-00001,node,485640732,https://www.openstreetmap.org/node/485640732,Zur Wilden Renate,nightclub,Alt-Stralau,70,10245,Berlin,52.4973901,13.4653065,,,unknown,,,0,low,10000,21000,21000,yes,,2026-01-25,,,,0,yes
DE-BE-00002,node,941439093,https://www.openstreetmap.org/node/941439093,Horváth,restaurant,Paul-Lincke-Ufer,44a,10999,Berlin,52.4963757,13.4208114,,We-Su 18:30-21:30,unknown,,,0,low,10000,21000,21000,yes,,2026-01-25,2024-06-05,survey:date,2024-09-03,0,yes
DE-BE-00003,node,1263799847,https://www.openstreetmap.org/node/1263799847,Disconnect Art Gallery and Record Shop,music,Finowstraße,25,10247,Berlin,52.5109844,13.4671354,https://disconnectberlin.wordpress.com/,Th-Sa 15:00-19:00; PH off,unknown,,,0,low,10000,21000,21000,yes,,2026-01-25,2022-10-23,survey:date,2023-01-21,0,yes
DE-BE-00004,node,1372898402,https://www.openstreetmap.org/node/1372898402,DoYouSpace,architect,Rigaer Straße,93,10247,Berlin,52.5177555,13.4581799,https://www.doyouspace.net,,unknown,,,0,low,10000,21000,21000,yes,,2026-01-25,2022-11-05,survey:date,2023-02-03,0,yes
DE-BE-00005,node,1765786432,https://www.openstreetmap.org/node/1765786432,Subway,fast_food,Am Borsigturm,2,13507,Berlin,52.5847198,13.2860195,https://restaurants.subway.com/de/deutschland/be/berlin/am-borsigturm-2,,unknown,,,0,low,10000,21000,21000,yes,,2026-01-25,2023-05-11,survey:date,2023-08-09,0,yes
DE-BE-00006,node,2521156202,https://www.openstreetmap.org/node/2521156202,Augenarztpraxis Dipl.-Med. Ricarda Hoffmann,doctors,Am Treptower Park,75,12435,Berlin,52.4921303,13.4576505,,"Mo 08:30-13:00,15:00-18:00, Tu,We,Fr 08:30-13:00, Th 13:00-18:00",unknown,,,0,low,10000,21000,21000,yes,,2026-01-25,2022-11-05,survey:date,2023-02-03,0,yes
DE-BE-00007,node,2537196472,https://www.openstreetmap.org/node/2537196472,Musikschule Kling-Klang,college,Randowstraße,20,13057,Berlin,52.5663684,13.524798,https://musikschule-kling-klang.de/,,unknown,,,0,low,10000,21000,21000,yes,,2026-01-25,2022-11-05,survey:date,2023-02-03,0,yes
DE-BE-00008,node,2540122308,https://www.openstreetmap.org/node/2540122308,Schmidt Barg Rechtsanwälte,lawyer,Lietzenburger Straße,102,10707,Berlin,52.499767,13.3183245,https://www.sbkw.de/impressum.html,,unknown,,,0,low,10000,21000,21000,yes,,2026-01-25,2022-11-05,survey:date,2023-02-03,0,yes
DE-BE-00009,node,2613923735,https://www.openstreetmap.org/node/2613923735,lasergravur-berlin.de,yes,Sonnenallee,42,12045,Berlin,52.4854996,13.4313229,http://www.lasergravur-berlin.de,,unknown,,,0,low,10000,21000,21000,yes,,2026-01-25,2022-11-05,survey:date,2023-02-03,0,yes
DE-BE-00010,node,2641068367,https://www.openstreetmap.org/node/2641068367,Coworking Space Berlin-Friedrichshain Launch/Co,coworking,Rudolfstraße,14,10245,Berlin,52.5036356,13.454467,,Mo-Fr 09:00-19:00,unknown,,,0,low,10000,21000,21000,yes,,2026-01-25,2022-11-05,survey:date,2023-02-03,0,yes
DE-BE-00011,node,2935266552,https://www.openstreetmap.org/node/2935266552,Barberium,hairdresser,Boxhagener Straße,59,10245,Berlin,52.5064668,13.4693373,,"Tu-Fr 10:00-19:00, Sa 10:00-17:00",unknown,,,0,low,10000,21000,21000,yes,,2026-01-25,2024-09-05,check_date,2024-12-04,0,yes
DE-BE-00012,node,3036860727,https://www.openstreetmap.org/node/3036860727,Fabelhaft Bar,bar,Schönleinstraße,6,10967,Berlin,52.4922712,13.4209764,http://fabelhaftberlin.de,Tu-Sa 19:00+,unknown,,,0,low,10000,21000,21000,yes,,2026-01-25,2023-06-02,check_date,2023-08-31,0,yes
DE-BE-00013,node,3037805664,https://www.openstreetmap.org/node/3037805664,ICE Aesthetic - Zentrum Kryolipolyse Berlin,sports_centre,Uhlandstraße,20-25,10623,Berlin,52.5038258,13.3251553,https://www.ice-aesthetic.de/,Mo-Fr 10:00-20:00; Sa 10:00-18:00,unknown,,,0,low,10000,21000,21000,yes,,2026-01-25,2022-11-05,survey:date,2023-02-03,0,yes
DE-BE-00014,node,3039050673,https://www.openstreetmap.org/node/3039050673,WAHL Rechtsanwälte,lawyer,Berliner Allee,54,13088,Berlin,52.5486396,13.4534484,https://wahl-kanzlei.de,"""Nur nach Vereinbarung""",unknown,,,0,low,10000,21000,21000,yes,,2026-01-25,2024-09-29,check_date,2024-12-28,0,yes
DE-BE-00015,node,3039051050,https://www.openstreetmap.org/node/3039051050,dg.digital,advertising_agency,Berliner Allee,89,13088,Berlin,52.5497611,13.4568566,https://www.dg.digital,,unknown,,,0,low,10000,21000,21000,yes,,2026-01-25,,,,0,yes
DE-BE-00016,node,3353845440,https://www.openstreetmap.org/node/3353845440,Mamas Banh,restaurant,Hufelandstraße,31,10407,Berlin,52.5310661,13.4342397,http://mamasbanh.com,Mo-Su 12:00-22:00,unknown,,,0,low,10000,21000,21000,yes,,2026-01-25,2024-04-27,check_date,2024-07-26,0,yes
DE-BE-00017,node,3675739247,https://www.openstreetmap.org/node/3675739247,C.Translations UG,company,Rankestraße,26,10789,Berlin,52.502001,13.3335705,https://www.cengolio.com/,,unknown,,,0,low,10000,21000,21000,yes,,2026-01-25,2022-10-22,survey:date,2023-01-20,0,yes
DE-BE-00018,node,3734954314,https://www.openstreetmap.org/node/3734954314,Friedel Richter,restaurant,Torstraße,199,10115,Berlin,52.5281875,13.3914357,https://friedelrichter.de,Mo-Fr 18:00-23:00,unknown,,,0,low,10000,21000,21000,yes,,2026-01-25,2022-10-03,survey:date,2023-01-01,0,yes
DE-BE-00019,node,3747274058,https://www.openstreetmap.org/node/3747274058,Keith,bar,Schillerpromenade,2,12049,Berlin,52.4782382,13.4213181,https://www.keithbarberlin.de/,Mo-Su 18:00-03:00,unknown,,,0,low,10000,21000,21000,yes,,2026-01-25,2024-02-16,check_date,2024-05-16,0,yes
DE-BE-00020,node,3937876098,https://www.openstreetmap.org/node/3937876098,Hair Müller,hairdresser,Invalidenstraße,153,10115,Berlin,52.5322911,13.395606,https://www.hairmueller.de/,"PH,Su off; Mo-Fr 08:00-20:00; Sa off",unknown,,,0,low,10000,21000,21000,yes,,2026-01-25,2024-04-13,check_date,2024-07-12,0,yes
DE-BE-00021,node,4211986089,https://www.openstreetmap.org/node/4211986089,Subway,fast_food,Postplatz,4c,16761,Hennigsdorf,52.6372706,13.2051209,https://restaurants.subway.com/de/deutschland/bb/hennigsdorf/postplatz-4-4c,"Mo-Fr 09:00-20:00; Sa 10:00-20:00; PH,Su off",unknown,,,0,low,10000,21000,21000,yes,,2026-01-25,2023-12-23,check_date,2024-03-22,0,yes
DE-BE-00022,node,4294659989,https://www.openstreetmap.org/node/4294659989,Onkel Philipp's Spielzeugwerkstatt,toys,Choriner Straße,35,10435,Berlin,52.536497,13.410587,http://onkel-philipp.de,Tu-Sa 11:00-18:00,unknown,,,0,low,10000,21000,21000,yes,,2026-01-25,2024-06-11,check_date,2024-09-09,0,yes
DE-BE-00023,node,4755014779,https://www.openstreetmap.org/node/4755014779,Karma Syndikat | psy7.com,clothes,Petersburger Straße,47,10249,Berlin,52.5220576,13.4510816,https://psy7.com/,"Tu,Th 13:00-18:00; PH,Sa-Mo off; We,Fr 13:00-20:00",unknown,,,0,low,10000,21000,21000,yes,,2026-01-25,2022-11-05,survey:date,2023-02-03,0,yes
DE-BE-00024,node,4841008105,https://www.openstreetmap.org/node/4841008105,Süssmädchen,jewelry,Fehrbelliner Straße,23,10119,Berlin,52.5335929,13.4036081,,"""Termin & Abholung nach Absprache""",unknown,,,0,low,10000,21000,21000,yes,,2026-01-25,2022-10-19,survey:date,2023-01-17,0,yes
DE-BE-00025,node,4965923057,https://www.openstreetmap.org/node/4965923057,Paranoid Internet,advertising_agency,Friedrichstraße,68,10117,Berlin,52.5126351,13.3897599,,,unknown,,,0,low,10000,21000,21000,yes,,2026-01-25,2022-11-05,survey:date,2023-02-03,0,yes
DE-BE-00026,node,4970428921,https://www.openstreetmap.org/node/4970428921,Atheist Shoes,shoes,,,,Berlin,52.525194,13.402099,https://atheist.shoes/,"Mo 11:00-14:30,15:00-18:30; Tu,We-Fr 11:30-14:30,15:00-19:00; Sa 11:30-18:00; Su, PH off",unknown,,,0,low,10000,21000,21000,yes,,2026-01-25,2022-10-19,survey:date,2023-01-17,0,yes
DE-BE-00027,node,7610691602,https://www.openstreetmap.org/node/7610691602,Vater Bar,bar,Weserstraße,202,12047,Berlin,52.4877308,13.4310767,,,unknown,,,0,low,10000,21000,21000,yes,,2026-01-25,2023-06-03,survey:date,2023-09-01,0,yes
DE-BE-00028,node,8145412017,https://www.openstreetmap.org/node/8145412017,Mein Palo Santo,incense,,,,Berlin,52.5367859,13.4175276,,Th 12:00-19:00,unknown,,,0,low,10000,21000,21000,yes,,2026-01-25,,,,0,yes
DE-BE-00029,node,8311143284,https://www.openstreetmap.org/node/8311143284,Noku Studio,architect,Leipziger Straße,60,10117,Berlin,52.5111776,13.3958388,,Mo-Fr 09:00-18:00,unknown,,,0,low,10000,21000,21000,yes,,2026-01-25,2022-11-05,survey:date,2023-02-03,0,yes
DE-BE-00030,node,9215009717,https://www.openstreetmap.org/node/9215009717,Chipi Chipi Bombón,ice_cream,Warschauer Straße,12,10243,Berlin,52.5131962,13.4525181,https://www.chipichipibombon.com,"Su-Th 13:00-23:00, Fr,Sa 13:00-24:00",unknown,,,0,low,10000,21000,21000,yes,,2026-01-25,2024-05-15,check_date,2024-08-13,0,yes
DE-BE-00031,node,9911287150,https://www.openstreetmap.org/node/9911287150,Legacy,paint,Yorckstraße,53,10965,Berlin,52.4926714,13.3701572,,Mo-Sa 12:00-20:00; PH off,unknown,,,0,low,10000,21000,21000,yes,,2026-01-25,2022-11-12,check_date,2023-02-10,0,yes
DE-BE-00032,node,10056802721,https://www.openstreetmap.org/node/10056802721,Satoshi Graphics,art,Altenbraker Straße,12a,12053,Berlin,52.4710594,13.4316893,https://satoshigraphics.com,,unknown,,,0,low,10000,21000,21000,yes,,2026-01-25,2022-09-28,survey:date,2022-12-27,0,yes
DE-BE-00033,node,10084805955,https://www.openstreetmap.org/node/10084805955,Mood - Café & Spätkauf,cafe,Kollwitzstraße,46,10405,Berlin,52.5342275,13.4161615,https://www.instagram.com/mood.spaeti.cafe/?r=nametag,Mo-Th 8:00-23:00; Fr-Sa 8:00-00:00; Su 09:00-23:00,unknown,,,0,low,10000,21000,21000,yes,,2026-01-25,,,,0,yes
DE-BE-00034,node,10118305052,https://www.openstreetmap.org/node/10118305052,Fulmo GmbH,company,Eberswalder Straße,6-9,10437,Berlin,52.5408009,13.4068129,https://shop.fulmo.org/,,unknown,,,0,low,10000,21000,21000,yes,,2026-01-25,2022-10-21,survey:date,2023-01-19,0,yes
DE-BE-00035,node,10134931577,https://www.openstreetmap.org/node/10134931577,KOSAE jewellery & design,jewelry,Fehrbelliner Straße,23,10119,Berlin,52.533571,13.4036851,,,unknown,,,0,low,10000,21000,21000,yes,,2026-01-25,2022-10-28,survey:date,2023-01-26,0,yes
DE-BE-00036,node,10161806420,https://www.openstreetmap.org/node/10161806420,Lahuge,yes,Wotanstraße,7a,10365,Berlin,52.515759,13.4968142,https://lahuge.com,,unknown,,,0,low,10000,21000,21000,yes,,2026-01-25,2022-11-06,survey:date,2023-02-04,0,yes
DE-BE-00037,node,10272682416,https://www.openstreetmap.org/node/10272682416,nexondo,computer,Fehrbelliner Straße,29,10119,Berlin,52.5342249,13.4020906,https://nexondo.de/,24/7,unknown,,,0,low,10000,21000,21000,yes,,2026-01-25,,,,0,yes
DE-BE-00038,node,10277742928,https://www.openstreetmap.org/node/10277742928,Fahrzeugpflege Laabs,car_wash,Schützenstraße,9,12529,Schönefeld,52.3960596,13.5323935,https://www.fahrzeugpflege-laabs.de,Mo-Fr 08:00-16:00,unknown,,,0,low,10000,21000,21000,yes,,2026-01-25,,,,0,yes
DE-BE-00039,node,10297995578,https://www.openstreetmap.org/node/10297995578,Physiotherapie Alexandros Swoch,other,Auguste-Viktoria-Straße,7,14193,Berlin,52.4917336,13.2906484,https://fuessiotherapie.de,Mo-Fr 08:00-20:00,unknown,,,0,low,10000,21000,21000,yes,,2026-01-25,,,,0,yes
DE-BE-00040,node,10313585322,https://www.openstreetmap.org/node/10313585322,Café Holzmarktperle,cafe,Holzmarktstraße,25,10243,Berlin,52.511438,13.4268672,,Mo-Fr 10:30-19:00; Sa-So 11:00-19:00,unknown,,,0,low,10000,21000,21000,yes,,2026-01-25,2023-07-06,survey:date,2023-10-04,0,yes
DE-BE-00041,node,10698030584,https://www.openstreetmap.org/node/10698030584,CI Space,coworking,Bugenhagenstraße,9,10551,Berlin,52.5280242,13.3417811,https://cispace.isaci.com,Mo-Sa 10:00-22:00,unknown,,,0,low,10000,21000,21000,yes,,2026-01-25,2024-06-05,survey:date,2024-09-03,0,yes
DE-BE-00042,node,10980836247,https://www.openstreetmap.org/node/10980836247,Praxis für Hypnosetherapie & Mentalcoaching Lukas Plath,other,Kochstraße,8,14612,Falkensee,52.5642157,13.0881227,,,unknown,,,0,low,10000,21000,21000,yes,,2026-01-25,2023-03-01,survey:date,2023-05-30,0,yes
DE-BE-00043,node,11061882780,https://www.openstreetmap.org/node/11061882780,B-touched Yoga by Bianca,fitness_centre,Königsbacher Zeile,23,13465,Berlin,52.6402199,13.295109,https://b-touched-yoga.com/,,unknown,,,0,low,10000,21000,21000,yes,,2026-01-25,2023-07-22,check_date,2023-10-20,0,yes
DE-BE-00044,node,11183254526,https://www.openstreetmap.org/node/11183254526,Liebener Coaching,yes,Petersburger Straße,3,10249,Berlin,52.525895,13.4489086,https://www.liebener-coaching.de/,,unknown,,,0,low,10000,21000,21000,yes,,2026-01-25,2023-09-11,check_date,2023-12-10,0,yes
DE-BE-00045,node,11377463070,https://www.openstreetmap.org/node/11377463070,TexuCrafts - Durable Leather Goods,leather,Herzbergstraße,55,10365,Berlin,52.5255245,13.4981627,https://www.texucrafts.com,"""Workshop visit by appointment / Werkstattbesuch nach Vereinbarung""",unknown,,,0,low,10000,21000,21000,yes,,2026-01-25,2023-11-26,check_date,2024-02-24,0,yes
DE-BE-00046,node,11377463071,https://www.openstreetmap.org/node/11377463071,Karmen Kraft,art,Herzbergstraße,55,10365,Berlin,52.5259171,13.4980609,https://www.karmenkraft.com/,"""Atelierbesuch nach Vereinbarung / Studio visit by appointment""",unknown,,,0,low,10000,21000,21000,yes,,2026-01-25,2023-11-26,check_date,2024-02-24,0,yes
DE-BE-00047,node,11607323999,https://www.openstreetmap.org/node/11607323999,Sattler factory,saddler,Berliner Straße,50,14467,Potsdam,52.4092521,13.079092,https://www.sattler-factory.de/,"""Termine nach Vereinbarung""",unknown,,,0,low,10000,21000,21000,yes,,2026-01-25,2024-02-10,check_date,2024-05-10,0,yes
DE-BE-00048,node,11701009756,https://www.openstreetmap.org/node/11701009756,Luca Hiller 21Answers.de,consulting,Oranienburger Straße,44,16540,Hohen Neuendorf,52.6776948,13.2805104,https://21answers.de/,Mo-Fr 09:00-17:00,unknown,,,0,low,10000,21000,21000,yes,,2026-01-25,2024-01-03,survey:date,2024-04-02,0,yes
DE-BE-00049,node,11861712699,https://www.openstreetmap.org/node/11861712699,"Martina Lubanski, Grafik Design, Art Direktorin",graphic_design,Willmanndamm,10,10827,Berlin,52.4907057,13.3631375,https://martinalubanski.com/,,unknown,,,0,low,10000,21000,21000,yes,,2026-01-25,2024-04-28,survey:date,2024-07-27,0,yes
DE-BE-00050,node,11918209446,https://www.openstreetmap.org/node/11918209446,Zimt & Pfeffer,spices,,,,Berlin,52.512325,13.4176575,https://zimtundpfeffer.com/,"Mo-Fr 10:30-18:30,Sa 11:00-16:30; PH off",unknown,,,0,low,10000,21000,21000,yes,,2026-01-25,2024-05-22,check_date,2024-08-20,0,yes
DE-BE-00051,node,11931158041,https://www.openstreetmap.org/node/11931158041,Fotostudio Kreuzberg,photographer,Manteuffelstraße,77,10999,Berlin,52.4976631,13.4252092,https://fotostudio-kreuzberg.de/,Mo-Fr 11:00-19:00,unknown,,,0,low,10000,21000,21000,yes,,2026-01-25,2024-05-24,check_date,2024-08-22,0,yes
DE-BE-00052,node,12009761189,https://www.openstreetmap.org/node/12009761189,Tante Tom Selbstbedienungsladen,gift,Hermsdorfer Damm,169,13467,Berlin,52.6188846,13.303273,https://www.tante-tom.de/,Mo-Su 10:00-19:00 (mostly),unknown,,,0,low,10000,21000,21000,yes,,2026-01-25,,,,0,yes
DE-BE-00053,node,12059901314,https://www.openstreetmap.org/node/12059901314,BeLUG e.V.,hackerspace,Lehrter Straße,53,10557,Berlin,52.5344905,13.3585006,https://belug.de/,We 18:00-21:00,unknown,,,0,low,10000,21000,21000,yes,,2026-01-25,2024-07-17,check_date,2024-10-15,0,yes
DE-BE-00054,node,12109126626,https://www.openstreetmap.org/node/12109126626,BicaBerlin Coffee,cafe,Pasteurstraße,36,10407,Berlin,52.5320764,13.4362759,,Sa 08:30-15:00,unknown,,,0,low,10000,21000,21000,yes,,2026-01-25,2024-08-31,check_date,2024-11-29,0,yes
DE-BE-00055,node,12170692127,https://www.openstreetmap.org/node/12170692127,Steinberg Imkerei,beekeeper,Rosentreterpromenade,21,13437,Berlin,52.5958764,13.316332,,,unknown,,,0,low,10000,21000,21000,yes,,2026-01-25,,,,0,yes
DE-BE-00056,node,12219015529,https://www.openstreetmap.org/node/12219015529,RML,construction_company,Döbelner Straße,4,12627,Berlin,52.5294096,13.6148571,https://rml-bau.de/,,unknown,,,0,low,10000,21000,21000,yes,,2026-01-25,2024-10-03,check_date,2025-01-01,0,yes
DE-BE-00057,node,12277896916,https://www.openstreetmap.org/node/12277896916,David Tenorio Tattoo,tattoo,Riemannstraße,3,10961,Berlin,52.490285,13.393468,https://www.davidtenorioart.com/,We 16:00-19:00,unknown,,,0,low,10000,21000,21000,yes,,2026-01-25,2024-10-22,check_date,2025-01-20,0,yes
